entity_id,canonical_name,capacity_mbpd,inventory_days,location_lat,location_lon,tier,source,as_of,notes
refinery_jamnagar,Jamnagar Refinery,1.40,22,22.47,70.07,real,PPAC-refinery,2025,capacity real (DTA 0.66 + SEZ 0.58 + debottleneck); inventory_days estimated (EST-inventory)
refinery_mangaluru,Mangaluru,0.30,22,12.91,74.84,real,PPAC-refinery,2025,15 MMTPA; inventory_days estimated (EST-inventory)
refinery_paradip,Paradip,0.30,22,20.31,86.69,real,PPAC-refinery,2025,15 MMTPA; inventory_days estimated (EST-inventory)
refinery_panipat,Panipat,0.30,22,29.39,76.97,real,PPAC-refinery,2025,IOCL 15 MMTPA; inventory_days estimated (EST-inventory)
refinery_kochi,Kochi,0.31,22,9.97,76.28,real,PPAC-refinery,2025,BPCL 15.5 MMTPA; inventory_days estimated (EST-inventory)
